3.24851 
$--GGA,172814.00,38.93067736,N,12202.26957864,W,2,6,1.2,18.893,M,-25.669,M,2.0,0031*4F 
$GPVTG,,T,,M,0.00,N,0.443898,K*4E 
6.04330 
$--GGA,172814.00,38.93068939,N,12202.26957864,W,2,6,1.2,18.893,M,-25.669,M,2.0,0031*4F 
$GPVTG,,T,,M,0.00,N,0.646812,K*4E 
8.83813 
$--GGA,172814.00,38.93071337,N,12202.26957864,W,2,6,1.2,18.893,M,-25.669,M,2.0,0031*4F 
$GPVTG,,T,,M,0.00,N,1.263147,K*4E 
12.33233 
$--GGA,172814.00,38.93076144,N,12202.26957864,W,2,6,1.2,18.893,M,-25.669,M,2.0,0031*4F 
$GPVTG,,T,,M,0.00,N,1.712667,K*4E 
15.05257 
$--GGA,172814.00,38.93080494,N,12202.26957864,W,2,6,1.2,18.893,M,-25.669,M,2.0,0031*4F 
$GPVTG,,T,,M,0.00,N,1.927725,K*4E 
18.45754 
$--GGA,172814.00,38.93087608,N,12202.26957864,W,2,6,1.2,18.893,M,-25.669,M,2.0,0031*4F 
$GPVTG,,T,,M,0.00,N,2.767143,K*4E 
21.39283 
$--GGA,172814.00,38.93095369,N,12202.26957864,W,2,6,1.2,18.893,M,-25.669,M,2.0,0031*4F 
$GPVTG,,T,,M,0.00,N,3.146628,K*4E 
23.85650 
$--GGA,172814.00,38.93102701,N,12202.26957864,W,2,6,1.2,18.893,M,-25.669,M,2.0,0031*4F 
$GPVTG,,T,,M,0.00,N,3.424989,K*4E 
27.04640 
$--GGA,172814.00,38.93113327,N,12202.26957864,W,2,6,1.2,18.893,M,-25.669,M,2.0,0031*4F 
$GPVTG,,T,,M,0.00,N,3.960549,K*4E 
29.84668 
$--GGA,172814.00,38.93123525,N,12202.26957864,W,2,6,1.2,18.893,M,-25.669,M,2.0,0031*4F 
$GPVTG,,T,,M,0.00,N,4.126661,K*4E 
33.12280 
$--GGA,172814.00,38.93136143,N,12202.26957864,W,2,6,1.2,18.893,M,-25.669,M,2.0,0031*4F 
$GPVTG,,T,,M,0.00,N,4.488107,K*4E 
36.29662 
$--GGA,172814.00,38.93149760,N,12202.26957864,W,2,6,1.2,18.893,M,-25.669,M,2.0,0031*4F 
$GPVTG,,T,,M,0.00,N,5.318473,K*4E 
39.24587 
$--GGA,172814.00,38.93164666,N,12202.26957864,W,2,6,1.2,18.893,M,-25.669,M,2.0,0031*4F 
$GPVTG,,T,,M,0.00,N,5.670103,K*4E 
41.62554 
$--GGA,172814.00,38.93176913,N,12202.26957864,W,2,6,1.2,18.893,M,-25.669,M,2.0,0031*4F 
$GPVTG,,T,,M,0.00,N,5.740649,K*4E 
45.32239 
$--GGA,172814.00,38.93197047,N,12202.26957864,W,2,6,1.2,18.893,M,-25.669,M,2.0,0031*4F 
$GPVTG,,T,,M,0.00,N,6.354394,K*4E 
47.52515 
$--GGA,172814.00,38.93209564,N,12202.26957864,W,2,6,1.2,18.893,M,-25.669,M,2.0,0031*4F 
$GPVTG,,T,,M,0.00,N,6.312681,K*4E 
50.91443 
$--GGA,172814.00,38.93229249,N,12202.26957864,W,2,6,1.2,18.893,M,-25.669,M,2.0,0031*4F 
$GPVTG,,T,,M,0.00,N,6.695110,K*4E 
54.23141 
$--GGA,172814.00,38.93249920,N,12202.26957864,W,2,6,1.2,18.893,M,-25.669,M,2.0,0031*4F 
$GPVTG,,T,,M,0.00,N,7.210342,K*4E 
57.28137 
$--GGA,172814.00,38.93269546,N,12202.26957864,W,2,6,1.2,18.893,M,-25.669,M,2.0,0031*4F 
$GPVTG,,T,,M,0.00,N,7.403632,K*4E 
59.86729 
$--GGA,172814.00,38.93287342,N,12202.26957864,W,2,6,1.2,18.893,M,-25.669,M,2.0,0031*4F 
$GPVTG,,T,,M,0.00,N,7.879985,K*4E 
63.24487 
$--GGA,172814.00,38.93311803,N,12202.26957864,W,2,6,1.2,18.893,M,-25.669,M,2.0,0031*4F 
$GPVTG,,T,,M,0.00,N,8.067887,K*4E 
66.39227 
$--GGA,172814.00,38.93334233,N,12202.26957864,W,2,6,1.2,18.893,M,-25.669,M,2.0,0031*4F 
$GPVTG,,T,,M,0.00,N,8.146616,K*4E 
68.74260 
$--GGA,172814.00,38.93352202,N,12202.26957864,W,2,6,1.2,18.893,M,-25.669,M,2.0,0031*4F 
$GPVTG,,T,,M,0.00,N,8.543174,K*4E 
71.62960 
$--GGA,172814.00,38.93374498,N,12202.26957864,W,2,6,1.2,18.893,M,-25.669,M,2.0,0031*4F 
$GPVTG,,T,,M,0.00,N,8.561310,K*4E 
74.72507 
$--GGA,172814.00,38.93398657,N,12202.26957864,W,2,6,1.2,18.893,M,-25.669,M,2.0,0031*4F 
$GPVTG,,T,,M,0.00,N,8.866556,K*4E 
77.85001 
$--GGA,172814.00,38.93423767,N,12202.26957864,W,2,6,1.2,18.893,M,-25.669,M,2.0,0031*4F 
$GPVTG,,T,,M,0.00,N,9.161456,K*4E 
80.78708 
$--GGA,172814.00,38.93447739,N,12202.26957864,W,2,6,1.2,18.893,M,-25.669,M,2.0,0031*4F 
$GPVTG,,T,,M,0.00,N,9.229130,K*4E 
84.42749 
$--GGA,172814.00,38.93478250,N,12202.26957864,W,2,6,1.2,18.893,M,-25.669,M,2.0,0031*4F 
$GPVTG,,T,,M,0.00,N,9.261246,K*4E 
86.55131 
$--GGA,172814.00,38.93496086,N,12202.26957864,W,2,6,1.2,18.893,M,-25.669,M,2.0,0031*4F 
$GPVTG,,T,,M,0.00,N,9.679925,K*4E 
90.09267 
$--GGA,172814.00,38.93526736,N,12202.26957864,W,2,6,1.2,18.893,M,-25.669,M,2.0,0031*4F 
$GPVTG,,T,,M,0.00,N,9.681645,K*4E 
92.66290 
$--GGA,172814.00,38.93548974,N,12202.26957864,W,2,6,1.2,18.893,M,-25.669,M,2.0,0031*4F 
$GPVTG,,T,,M,0.00,N,9.438240,K*4E 
96.33841 
$--GGA,172814.00,38.93580857,N,12202.26957864,W,2,6,1.2,18.893,M,-25.669,M,2.0,0031*4F 
$GPVTG,,T,,M,0.00,N,9.782840,K*4E 
98.66756 
$--GGA,172814.00,38.93600934,N,12202.26957864,W,2,6,1.2,18.893,M,-25.669,M,2.0,0031*4F 
$GPVTG,,T,,M,0.00,N,9.668487,K*4E 
102.00220 
$--GGA,172814.00,38.93630766,N,12202.26957864,W,2,6,1.2,18.893,M,-25.669,M,2.0,0031*4F 
$GPVTG,,T,,M,0.00,N,9.989326,K*4E 
105.49933 
$--GGA,172814.00,38.93662118,N,12202.26957864,W,2,6,1.2,18.893,M,-25.669,M,2.0,0031*4F 
$GPVTG,,T,,M,0.00,N,10.622309,K*4E 
107.85541 
$--GGA,172814.00,38.93685638,N,12202.26957864,W,2,6,1.2,18.893,M,-25.669,M,2.0,0031*4F 
$GPVTG,,T,,M,0.00,N,11.273418,K*4E 
110.54708 
$--GGA,172814.00,38.93713933,N,12202.26957864,W,2,6,1.2,18.893,M,-25.669,M,2.0,0031*4F 
$GPVTG,,T,,M,0.00,N,12.085782,K*4E 
113.71366 
$--GGA,172814.00,38.93749717,N,12202.26957864,W,2,6,1.2,18.893,M,-25.669,M,2.0,0031*4F 
$GPVTG,,T,,M,0.00,N,12.761943,K*4E 
116.89784 
$--GGA,172814.00,38.93785627,N,12202.26957864,W,2,6,1.2,18.893,M,-25.669,M,2.0,0031*4F 
$GPVTG,,T,,M,0.00,N,13.090954,K*4E 
119.83367 
$--GGA,172814.00,38.93821674,N,12202.26957864,W,2,6,1.2,18.893,M,-25.669,M,2.0,0031*4F 
$GPVTG,,T,,M,0.00,N,13.716428,K*4E 
122.72960 
$--GGA,172814.00,38.93857864,N,12202.26957864,W,2,6,1.2,18.893,M,-25.669,M,2.0,0031*4F 
$GPVTG,,T,,M,0.00,N,14.099018,K*4E 
126.43612 
$--GGA,172814.00,38.93905991,N,12202.26957864,W,2,6,1.2,18.893,M,-25.669,M,2.0,0031*4F 
$GPVTG,,T,,M,0.00,N,14.946947,K*4E 
129.18319 
$--GGA,172814.00,38.93942908,N,12202.26957864,W,2,6,1.2,18.893,M,-25.669,M,2.0,0031*4F 
$GPVTG,,T,,M,0.00,N,15.528742,K*4E 
132.46211 
$--GGA,172814.00,38.93989874,N,12202.26957864,W,2,6,1.2,18.893,M,-25.669,M,2.0,0031*4F 
$GPVTG,,T,,M,0.00,N,16.258343,K*4E 
134.93797 
$--GGA,172814.00,38.94027086,N,12202.26957864,W,2,6,1.2,18.893,M,-25.669,M,2.0,0031*4F 
$GPVTG,,T,,M,0.00,N,16.890053,K*4E 
138.44034 
$--GGA,172814.00,38.94080620,N,12202.26957864,W,2,6,1.2,18.893,M,-25.669,M,2.0,0031*4F 
$GPVTG,,T,,M,0.00,N,17.239003,K*4E 
140.50583 
$--GGA,172814.00,38.94113652,N,12202.26957864,W,2,6,1.2,18.893,M,-25.669,M,2.0,0031*4F 
$GPVTG,,T,,M,0.00,N,17.869898,K*4E 
144.11031 
$--GGA,172814.00,38.94173154,N,12202.26957864,W,2,6,1.2,18.893,M,-25.669,M,2.0,0031*4F 
$GPVTG,,T,,M,0.00,N,18.844865,K*4E 
147.30108 
$--GGA,172814.00,38.94227695,N,12202.26957864,W,2,6,1.2,18.893,M,-25.669,M,2.0,0031*4F 
$GPVTG,,T,,M,0.00,N,19.151843,K*4E 
149.73298 
$--GGA,172814.00,38.94269477,N,12202.26957864,W,2,6,1.2,18.893,M,-25.669,M,2.0,0031*4F 
$GPVTG,,T,,M,0.00,N,19.720142,K*4E 
153.43247 
$--GGA,172814.00,38.94336747,N,12202.26957864,W,2,6,1.2,18.893,M,-25.669,M,2.0,0031*4F 
$GPVTG,,T,,M,0.00,N,20.690485,K*4E 
156.26326 
$--GGA,172814.00,38.94388857,N,12202.26957864,W,2,6,1.2,18.893,M,-25.669,M,2.0,0031*4F 
$GPVTG,,T,,M,0.00,N,20.834982,K*4E 
159.32645 
$--GGA,172814.00,38.94447947,N,12202.26957864,W,2,6,1.2,18.893,M,-25.669,M,2.0,0031*4F 
$GPVTG,,T,,M,0.00,N,21.734899,K*4E 
162.07346 
$--GGA,172814.00,38.94501342,N,12202.26957864,W,2,6,1.2,18.893,M,-25.669,M,2.0,0031*4F 
$GPVTG,,T,,M,0.00,N,22.325149,K*4E 
165.29258 
$--GGA,172814.00,38.94566412,N,12202.26957864,W,2,6,1.2,18.893,M,-25.669,M,2.0,0031*4F 
$GPVTG,,T,,M,0.00,N,23.023026,K*4E 
167.82904 
$--GGA,172814.00,38.94620580,N,12202.26957864,W,2,6,1.2,18.893,M,-25.669,M,2.0,0031*4F 
$GPVTG,,T,,M,0.00,N,23.444539,K*4E 
170.72346 
$--GGA,172814.00,38.94682402,N,12202.26957864,W,2,6,1.2,18.893,M,-25.669,M,2.0,0031*4F 
$GPVTG,,T,,M,0.00,N,24.065784,K*4E 
173.81239 
$--GGA,172814.00,38.94749857,N,12202.26957864,W,2,6,1.2,18.893,M,-25.669,M,2.0,0031*4F 
$GPVTG,,T,,M,0.00,N,24.474001,K*4E 
177.08452 
$--GGA,172814.00,38.94821410,N,12202.26957864,W,2,6,1.2,18.893,M,-25.669,M,2.0,0031*4F 
$GPVTG,,T,,M,0.00,N,25.406920,K*4E 
180.32991 
$--GGA,172814.00,38.94897473,N,12202.26957864,W,2,6,1.2,18.893,M,-25.669,M,2.0,0031*4F 
$GPVTG,,T,,M,0.00,N,25.962284,K*4E 
182.79046 
$--GGA,172814.00,38.94953884,N,12202.26957864,W,2,6,1.2,18.893,M,-25.669,M,2.0,0031*4F 
$GPVTG,,T,,M,0.00,N,26.439090,K*4E 
185.90255 
$--GGA,172814.00,38.95030225,N,12202.26957864,W,2,6,1.2,18.893,M,-25.669,M,2.0,0031*4F 
$GPVTG,,T,,M,0.00,N,26.779967,K*4E 
189.36206 
$--GGA,172814.00,38.95113250,N,12202.26957864,W,2,6,1.2,18.893,M,-25.669,M,2.0,0031*4F 
$GPVTG,,T,,M,0.00,N,27.677835,K*4E 
192.11474 
$--GGA,172814.00,38.95183290,N,12202.26957864,W,2,6,1.2,18.893,M,-25.669,M,2.0,0031*4F 
$GPVTG,,T,,M,0.00,N,28.082043,K*4E 
195.49119 
$--GGA,172814.00,38.95267474,N,12202.26957864,W,2,6,1.2,18.893,M,-25.669,M,2.0,0031*4F 
$GPVTG,,T,,M,0.00,N,28.818352,K*4E 
197.70370 
$--GGA,172814.00,38.95327302,N,12202.26957864,W,2,6,1.2,18.893,M,-25.669,M,2.0,0031*4F 
$GPVTG,,T,,M,0.00,N,29.188367,K*4E 
201.32721 
$--GGA,172814.00,38.95422515,N,12202.26957864,W,2,6,1.2,18.893,M,-25.669,M,2.0,0031*4F 
$GPVTG,,T,,M,0.00,N,29.523035,K*4E 
204.17586 
$--GGA,172814.00,38.95495183,N,12202.26957864,W,2,6,1.2,18.893,M,-25.669,M,2.0,0031*4F 
$GPVTG,,T,,M,0.00,N,28.250718,K*4E 
206.74895 
$--GGA,172814.00,38.95560098,N,12202.26957864,W,2,6,1.2,18.893,M,-25.669,M,2.0,0031*4F 
$GPVTG,,T,,M,0.00,N,27.535702,K*4E 
209.97579 
$--GGA,172814.00,38.95638425,N,12202.26957864,W,2,6,1.2,18.893,M,-25.669,M,2.0,0031*4F 
$GPVTG,,T,,M,0.00,N,26.974677,K*4E 
212.89908 
$--GGA,172814.00,38.95707249,N,12202.26957864,W,2,6,1.2,18.893,M,-25.669,M,2.0,0031*4F 
$GPVTG,,T,,M,0.00,N,25.896899,K*4E 
216.09944 
$--GGA,172814.00,38.95780328,N,12202.26957864,W,2,6,1.2,18.893,M,-25.669,M,2.0,0031*4F 
$GPVTG,,T,,M,0.00,N,25.007173,K*4E 
219.30052 
$--GGA,172814.00,38.95852609,N,12202.26957864,W,2,6,1.2,18.893,M,-25.669,M,2.0,0031*4F 
$GPVTG,,T,,M,0.00,N,23.864897,K*4E 
221.60507 
$--GGA,172814.00,38.95901302,N,12202.26957864,W,2,6,1.2,18.893,M,-25.669,M,2.0,0031*4F 
$GPVTG,,T,,M,0.00,N,23.374850,K*4E 
225.32144 
$--GGA,172814.00,38.95976802,N,12202.26957864,W,2,6,1.2,18.893,M,-25.669,M,2.0,0031*4F 
$GPVTG,,T,,M,0.00,N,22.090058,K*4E 
228.34109 
$--GGA,172814.00,38.96034956,N,12202.26957864,W,2,6,1.2,18.893,M,-25.669,M,2.0,0031*4F 
$GPVTG,,T,,M,0.00,N,21.178422,K*4E 
230.85451 
$--GGA,172814.00,38.96081609,N,12202.26957864,W,2,6,1.2,18.893,M,-25.669,M,2.0,0031*4F 
$GPVTG,,T,,M,0.00,N,20.430060,K*4E 
233.93007 
$--GGA,172814.00,38.96137164,N,12202.26957864,W,2,6,1.2,18.893,M,-25.669,M,2.0,0031*4F 
$GPVTG,,T,,M,0.00,N,19.575786,K*4E 
237.07224 
$--GGA,172814.00,38.96190650,N,12202.26957864,W,2,6,1.2,18.893,M,-25.669,M,2.0,0031*4F 
$GPVTG,,T,,M,0.00,N,18.852288,K*4E 
240.20082 
$--GGA,172814.00,38.96243055,N,12202.26957864,W,2,6,1.2,18.893,M,-25.669,M,2.0,0031*4F 
$GPVTG,,T,,M,0.00,N,17.653093,K*4E 
243.24247 
$--GGA,172814.00,38.96289299,N,12202.26957864,W,2,6,1.2,18.893,M,-25.669,M,2.0,0031*4F 
$GPVTG,,T,,M,0.00,N,16.806135,K*4E 
246.25788 
$--GGA,172814.00,38.96333572,N,12202.26957864,W,2,6,1.2,18.893,M,-25.669,M,2.0,0031*4F 
$GPVTG,,T,,M,0.00,N,16.055977,K*4E 
248.88913 
$--GGA,172814.00,38.96369935,N,12202.26957864,W,2,6,1.2,18.893,M,-25.669,M,2.0,0031*4F 
$GPVTG,,T,,M,0.00,N,15.100062,K*4E 
251.92930 
$--GGA,172814.00,38.96410595,N,12202.26957864,W,2,6,1.2,18.893,M,-25.669,M,2.0,0031*4F 
$GPVTG,,T,,M,0.00,N,14.174559,K*4E 
255.45634 
$--GGA,172814.00,38.96453412,N,12202.26957864,W,2,6,1.2,18.893,M,-25.669,M,2.0,0031*4F 
$GPVTG,,T,,M,0.00,N,13.074430,K*4E 
258.07297 
$--GGA,172814.00,38.96482835,N,12202.26957864,W,2,6,1.2,18.893,M,-25.669,M,2.0,0031*4F 
$GPVTG,,T,,M,0.00,N,12.167298,K*4E 
261.34972 
$--GGA,172814.00,38.96517483,N,12202.26957864,W,2,6,1.2,18.893,M,-25.669,M,2.0,0031*4F 
$GPVTG,,T,,M,0.00,N,11.229575,K*4E 
263.77635 
$--GGA,172814.00,38.96540767,N,12202.26957864,W,2,6,1.2,18.893,M,-25.669,M,2.0,0031*4F 
$GPVTG,,T,,M,0.00,N,10.423882,K*4E 
267.12232 
$--GGA,172814.00,38.96571601,N,12202.26957864,W,2,6,1.2,18.893,M,-25.669,M,2.0,0031*4F 
$GPVTG,,T,,M,0.00,N,9.813904,K*4E 
270.08836 
$--GGA,172814.00,38.96595960,N,12202.26957864,W,2,6,1.2,18.893,M,-25.669,M,2.0,0031*4F 
$GPVTG,,T,,M,0.00,N,8.860159,K*4E 
273.46347 
$--GGA,172814.00,38.96621315,N,12202.26957864,W,2,6,1.2,18.893,M,-25.669,M,2.0,0031*4F 
$GPVTG,,T,,M,0.00,N,7.720179,K*4E 
275.58590 
$--GGA,172814.00,38.96635041,N,12202.26957864,W,2,6,1.2,18.893,M,-25.669,M,2.0,0031*4F 
$GPVTG,,T,,M,0.00,N,6.840733,K*4E 
279.00050 
$--GGA,172814.00,38.96654865,N,12202.26957864,W,2,6,1.2,18.893,M,-25.669,M,2.0,0031*4F 
$GPVTG,,T,,M,0.00,N,5.874977,K*4E 
282.02159 
$--GGA,172814.00,38.96669685,N,12202.26957864,W,2,6,1.2,18.893,M,-25.669,M,2.0,0031*4F 
$GPVTG,,T,,M,0.00,N,5.144063,K*4E 
284.59017 
$--GGA,172814.00,38.96680442,N,12202.26957864,W,2,6,1.2,18.893,M,-25.669,M,2.0,0031*4F 
$GPVTG,,T,,M,0.00,N,4.453286,K*4E 
288.40467 
$--GGA,172814.00,38.96694335,N,12202.26957864,W,2,6,1.2,18.893,M,-25.669,M,2.0,0031*4F 
$GPVTG,,T,,M,0.00,N,3.420452,K*4E 
291.38439 
$--GGA,172814.00,38.96701640,N,12202.26957864,W,2,6,1.2,18.893,M,-25.669,M,2.0,0031*4F 
$GPVTG,,T,,M,0.00,N,2.209547,K*4E 
293.93899 
$--GGA,172814.00,38.96705956,N,12202.26957864,W,2,6,1.2,18.893,M,-25.669,M,2.0,0031*4F 
$GPVTG,,T,,M,0.00,N,1.546603,K*4E 
297.28172 
$--GGA,172814.00,38.96709431,N,12202.26957864,W,2,6,1.2,18.893,M,-25.669,M,2.0,0031*4F 
$GPVTG,,T,,M,0.00,N,0.710037,K*4E 
